[
    {"id":1,"name": "มหาวิทยาลัยกรุงเทพ วิทยาเขตรังสิต","address":"จ.ปทุมธานี อ.คลองหลวง", "latitude" : "14.0395129", "longitude" : "100.6122094"} ,
    {"id":2,"name": "มหาวิทยาลัยเทคโนโลยีราชมงคลธัญบุรี","address":"จ.ปทุมธานี อ.คลองหลวง", "latitude" : "14.0396746", "longitude" : "100.544357"} ,
    {"id":3,"name": "มหาวิทยาลัยราชภัฏวไลยอลงกรณ์ ในพระบรมราชูปถัมภ์","address":"จ.ปทุมธานี อ.คลองหลวง" , "latitude" : "14.1334383", "longitude" : "100.6146767"},
    {"id":4,"name": "มหาวิทยาลัยปทุมธานี","address":"จ.ปทุมธานี อ.เมือง" , "latitude" : "14.0139244", "longitude" : "100.5469673"},
    {"id":5,"name": "มหาวิทยาลัยรังสิต","address":"จ.ปทุมธานี อ.เมือง" , "latitude" : "13.9672959", "longitude" : "100.5877104"},
    {"id":6,"name": "มหาวิทยาลัยอีสเทิร์นเอเชีย","address":"จ.ปทุมธานี อ.ธัญบุรี" , "latitude" : "14.0015492", "longitude" : "100.7170243"},
    {"id":7,"name": "มหาวิทยาลัยชินวัตร วิทยาเขตปทุมธานี","address":"จ.ปทุมธานี อ.สามโคก" , "latitude" : "14.1015182", "longitude" : "100.4304993"},
    {"id":8,"name": "มหาวิทยาลัยธรรมศาสตร์ ศูนย์รังสิต","address":"จ.ปทุมธานี อ.คลองหลวง", "latitude" : "14.0334615", "longitude" : "100.5744624" },
    {"id":9,"name": "มหาวิทยาลัยนอร์ทกรุงเทพ วิทยาเขตรังสิต","address":"จ.ปทุมธานี อ.ธัญบุรี", "latitude" : "13.9460511", "longitude" : "100.5749556" },
    {"id":10,"name": "มหาวิทยาลัยเวสเทิร์น วิทยาเขตปทุมธานี","address":"จ.ปทุมธานี อ.ลำลูกกา", "latitude" : "13.9213313", "longitude" : "100.7018112" }
]